CEP,Nome_Escola,Vagas,Latitude,Longitude
21311060,COLEGIO NACIONAL,2,-22.8865276,-43.3286121
21665280,ESCOLA MUNICIPAL GILBERTO AMADO,2,-22.8316289,-43.3733795
25670020,ESCOLA MUNICIPAL SOROPTIMISTA,2,-22.4922307,-43.2120056
28630330,ESCOLA MUNICIPAL PROFESSORA NAIR DE ARAÃšJO RODRIGUES,2,-22.236844,-42.5500587
28200000,ESCOLA MUNICIPAL CHRISANTO HENRIQUE DE SOUZA,2,-21.6368446,-41.0484428
